[
  {
    "id": 49610,
    "name": "Acadia NP",
    "state": "ME",
    "country": "US",
    "lat": 44.31,
    "lng": -68.291
  },
  {
    "id": 73645,
    "name": "American Samoa NP",
    "state": "AS",
    "country": "US",
    "lat": -14.245,
    "lng": -169.927
  },
  {
    "id": 53642,
    "name": "Arches NP",
    "state": "UT",
    "country": "US",
    "lat": 38.723,
    "lng": -109.586
  },
  {
    "id": 72792,
    "name": "Badlands NP",
    "state": "SD",
    "country": "US",
    "lat": 43.685,
    "lng": -102.483
  },
  {
    "id": 55071,
    "name": "Big Bend NP",
    "state": "TX",
    "country": "US",
    "lat": 29.298,
    "lng": -103.23
  },
  {
    "id": 95108,
    "name": "Biscayne NP",
    "state": "FL",
    "country": "US",
    "lat": 25.49,
    "lng": -80.21
  },
  {
    "id": 72635,
    "name": "Black Canyon NP",
    "state": "CO",
    "country": "US",
    "lat": 38.578,
    "lng": -107.724
  },
  {
    "id": 69110,
    "name": "Bryce Canyon NP",
    "state": "UT",
    "country": "US",
    "lat": 37.584,
    "lng": -112.183
  },
  {
    "id": 95131,
    "name": "Canyonlands NP",
    "state": "UT",
    "country": "US",
    "lat": 38.245,
    "lng": -109.88
  },
  {
    "id": 69282,
    "name": "Capitol Reef NP",
    "state": "UT",
    "country": "US",
    "lat": 38.177,
    "lng": -111.176
  },
  {
    "id": 69109,
    "name": "Carlsbad Caverns NP",
    "state": "NM",
    "country": "US",
    "lat": 32.141,
    "lng": -104.553
  },
  {
    "id": 3157,
    "name": "Channel Islands NP",
    "state": "CA",
    "country": "US",
    "lat": 33.987,
    "lng": -119.911
  },
  {
    "id": 53620,
    "name": "Congaree NP",
    "state": "SC",
    "country": "US",
    "lat": 33.792,
    "lng": -80.748
  },
  {
    "id": 52923,
    "name": "Crater Lake NP",
    "state": "OR",
    "country": "US",
    "lat": 42.941,
    "lng": -122.133
  },
  {
    "id": 72639,
    "name": "Cuyahoga Valley NP",
    "state": "OH",
    "country": "US",
    "lat": 41.259,
    "lng": -81.571
  },
  {
    "id": 4504,
    "name": "Death Valley NP",
    "state": "CA",
    "country": "US",
    "lat": 36.484,
    "lng": -117.133
  },
  {
    "id": 71077,
    "name": "Denali NP",
    "state": "AK",
    "country": "US",
    "lat": 63.288,
    "lng": -151.058
  },
  {
    "id": 70571,
    "name": "Dry Tortugas NP",
    "state": "FL",
    "country": "US",
    "lat": 24.649,
    "lng": -82.872
  },
  {
    "id": 53957,
    "name": "Everglades NP",
    "state": "FL",
    "country": "US",
    "lat": 25.372,
    "lng": -80.882
  },
  {
    "id": 69111,
    "name": "Gates of the Arctic NP",
    "state": "AK",
    "country": "US",
    "lat": 67.749,
    "lng": -153.301
  },
  {
    "id": 137962,
    "name": "Gateway Arch NP",
    "state": "MO",
    "country": "US",
    "lat": 38.624,
    "lng": -90.186
  },
  {
    "id": 69113,
    "name": "Glacier NP",
    "state": "MT",
    "country": "US",
    "lat": 48.683,
    "lng": -113.8
  },
  {
    "id": 69113,
    "name": "Glacier Bay NP",
    "state": "AK",
    "country": "US",
    "lat": 58.797,
    "lng": -136.838
  },
  {
    "id": 69216,
    "name": "Grand Canyon NP",
    "state": "AZ",
    "country": "US",
    "lat": 36.172,
    "lng": -112.685
  },
  {
    "id": 69099,
    "name": "Grand Teton NP",
    "state": "WY",
    "country": "US",
    "lat": 43.818,
    "lng": -110.705
  },
  {
    "id": 69699,
    "name": "Great Basin NP",
    "state": "NV",
    "country": "US",
    "lat": 38.946,
    "lng": -114.258
  },
  {
    "id": 53632,
    "name": "Great Sand Dunes NP",
    "state": "CO",
    "country": "US",
    "lat": 37.792,
    "lng": -105.592
  },
  {
    "id": 72645,
    "name": "Great Smoky Mountains NP",
    "state": "TN",
    "country": "US",
    "lat": 35.601,
    "lng": -83.508
  },
  {
    "id": 69313,
    "name": "Guadalupe Mountains NP",
    "state": "TX",
    "country": "US",
    "lat": 31.923,
    "lng": -104.886
  },
  {
    "id": 56788,
    "name": "Haleakala NP",
    "state": "HI",
    "country": "US",
    "lat": 20.707,
    "lng": -156.159
  },
  {
    "id": 7222,
    "name": "Hawaii Volcanoes NP",
    "state": "HI",
    "country": "US",
    "lat": 19.339,
    "lng": -155.464
  },
  {
    "id": 56706,
    "name": "Hot Springs NP",
    "state": "AR",
    "country": "US",
    "lat": 34.524,
    "lng": -93.063
  },
  {
    "id": 88,
    "name": "Indiana Dunes NP",
    "state": "IN",
    "country": "US",
    "lat": 41.65,
    "lng": -87.053
  },
  {
    "id": 95245,
    "name": "Isle Royale NP",
    "state": "MI",
    "country": "US",
    "lat": 48.011,
    "lng": -88.828
  },
  {
    "id": 3680,
    "name": "Joshua Tree NP",
    "state": "CA",
    "country": "US",
    "lat": 33.914,
    "lng": -115.84
  },
  {
    "id": 95257,
    "name": "Katmai NP",
    "state": "AK",
    "country": "US",
    "lat": 58.618,
    "lng": -155.014
  },
  {
    "id": 95258,
    "name": "Kenai Fjords NP",
    "state": "AK",
    "country": "US",
    "lat": 59.816,
    "lng": -150.108
  },
  {
    "id": 3378,
    "name": "Kings Canyon NP",
    "state": "CA",
    "country": "US",
    "lat": 36.892,
    "lng": -118.598
  },
  {
    "id": 69115,
    "name": "Kobuk Valley NP",
    "state": "AK",
    "country": "US",
    "lat": 67.353,
    "lng": -159.199
  },
  {
    "id": 69114,
    "name": "Lake Clark NP",
    "state": "AK",
    "country": "US",
    "lat": 60.566,
    "lng": -153.557
  },
  {
    "id": 4509,
    "name": "Lassen Volcanic NP",
    "state": "CA",
    "country": "US",
    "lat": 40.494,
    "lng": -121.408
  },
  {
    "id": 72649,
    "name": "Mammoth Cave NP",
    "state": "KY",
    "country": "US",
    "lat": 37.198,
    "lng": -86.131
  },
  {
    "id": 69108,
    "name": "Mesa Verde NP",
    "state": "CO",
    "country": "US",
    "lat": 37.239,
    "lng": -108.462
  },
  {
    "id": 8838,
    "name": "Mount Rainier NP",
    "state": "WA",
    "country": "US",
    "lat": 46.861,
    "lng": -121.706
  },
  {
    "id": 95209,
    "name": "New River Gorge NP",
    "state": "WV",
    "country": "US",
    "lat": 37.873,
    "lng": -81.002
  },
  {
    "id": 69097,
    "name": "North Cascades NP",
    "state": "WA",
    "country": "US",
    "lat": 48.711,
    "lng": -121.206
  },
  {
    "id": 69094,
    "name": "Olympic NP",
    "state": "WA",
    "country": "US",
    "lat": 47.803,
    "lng": -123.666
  },
  {
    "id": 57573,
    "name": "Petrified Forest NP",
    "state": "AZ",
    "country": "US",
    "lat": 34.984,
    "lng": -109.788
  },
  {
    "id": 5737,
    "name": "Pinnacles NP",
    "state": "CA",
    "country": "US",
    "lat": 36.49,
    "lng": -121.181
  },
  {
    "id": 6021,
    "name": "Redwood NP",
    "state": "CA",
    "country": "US",
    "lat": 41.371,
    "lng": -124.032
  },
  {
    "id": 49676,
    "name": "Rocky Mountain NP",
    "state": "CO",
    "country": "US",
    "lat": 40.355,
    "lng": -105.697
  },
  {
    "id": 65739,
    "name": "Saguaro NP",
    "state": "AZ",
    "country": "US",
    "lat": 32.209,
    "lng": -110.758
  },
  {
    "id": 95321,
    "name": "Sequoia NP",
    "state": "CA",
    "country": "US",
    "lat": 36.508,
    "lng": -118.575
  },
  {
    "id": 9012,
    "name": "Shenandoah NP",
    "state": "VA",
    "country": "US",
    "lat": 38.492,
    "lng": -78.469
  },
  {
    "id": 72793,
    "name": "Theodore Roosevelt NP",
    "state": "ND",
    "country": "US",
    "lat": 47.175,
    "lng": -103.43
  },
  {
    "id": 95336,
    "name": "Virgin Islands NP",
    "state": "VI",
    "country": "US",
    "lat": 18.343,
    "lng": -64.742
  },
  {
    "id": 69101,
    "name": "Voyageurs NP",
    "state": "MN",
    "country": "US",
    "lat": 48.484,
    "lng": -92.838
  },
  {
    "id": 62621,
    "name": "White Sands NP",
    "state": "NM",
    "country": "US",
    "lat": 32.779,
    "lng": -106.333
  },
  {
    "id": 72794,
    "name": "Wind Cave NP",
    "state": "SD",
    "country": "US",
    "lat": 43.58,
    "lng": -103.439
  },
  {
    "id": 72658,
    "name": "Wrangell-St Elias NP",
    "state": "AK",
    "country": "US",
    "lat": 61.391,
    "lng": -142.585
  },
  {
    "id": 10211,
    "name": "Yellowstone NP",
    "state": "WY",
    "country": "US",
    "lat": 44.596,
    "lng": -110.547
  },
  {
    "id": 68542,
    "name": "Yosemite NP",
    "state": "CA",
    "country": "US",
    "lat": 37.848,
    "lng": -119.557
  },
  {
    "id": 50634,
    "name": "Zion NP",
    "state": "UT",
    "country": "US",
    "lat": 37.298,
    "lng": -113.026
  },
  {
    "id": 95106,
    "name": "Big Cypress National Preserve",
    "state": "FL",
    "country": "US",
    "lat": 25.976,
    "lng": -81.098
  },
  {
    "id": 95110,
    "name": "Big Thicket National Preserve",
    "state": "TX",
    "country": "US",
    "lat": 30.455,
    "lng": -94.386
  },
  {
    "id": 3958,
    "name": "Mojave National Preserve",
    "state": "CA",
    "country": "US",
    "lat": 35.141,
    "lng": -115.51
  },
  {
    "id": 95330,
    "name": "Tallgrass Prairie National Preserve",
    "state": "KS",
    "country": "US",
    "lat": 38.432,
    "lng": -96.556
  },
  {
    "id": 95147,
    "name": "Timucuan Ecological & Historic Preserve",
    "state": "FL",
    "country": "US",
    "lat": 30.418,
    "lng": -81.459
  },
  {
    "id": 95300,
    "name": "Padre Island National Seashore",
    "state": "TX",
    "country": "US",
    "lat": 26.929,
    "lng": -97.397
  },
  {
    "id": 95121,
    "name": "Cape Cod National Seashore",
    "state": "MA",
    "country": "US",
    "lat": 41.901,
    "lng": -70.006
  },
  {
    "id": 62831,
    "name": "Assateague Island National Seashore",
    "state": "MD",
    "country": "US",
    "lat": 38.055,
    "lng": -75.167
  },
  {
    "id": 5781,
    "name": "Point Reyes National Seashore",
    "state": "CA",
    "country": "US",
    "lat": 38.07,
    "lng": -122.833
  },
  {
    "id": 95125,
    "name": "Cape Hatteras National Seashore",
    "state": "NC",
    "country": "US",
    "lat": 35.232,
    "lng": -75.672
  },
  {
    "id": 95087,
    "name": "Cape Lookout National Seashore",
    "state": "NC",
    "country": "US",
    "lat": 34.662,
    "lng": -76.515
  },
  {
    "id": 95150,
    "name": "Cumberland Island National Seashore",
    "state": "GA",
    "country": "US",
    "lat": 30.833,
    "lng": -81.443
  },
  {
    "id": 95160,
    "name": "Fire Island National Seashore",
    "state": "NY",
    "country": "US",
    "lat": 40.673,
    "lng": -73
  },
  {
    "id": 95223,
    "name": "Gulf Islands National Seashore",
    "state": "FL",
    "country": "US",
    "lat": 30.315,
    "lng": -87.295
  },
  {
    "id": 95096,
    "name": "Apostle Islands National Lakeshore",
    "state": "WI",
    "country": "US",
    "lat": 46.979,
    "lng": -90.663
  },
  {
    "id": 95241,
    "name": "Indiana Dunes National Lakeshore",
    "state": "IN",
    "country": "US",
    "lat": 41.65,
    "lng": -87.053
  },
  {
    "id": 95250,
    "name": "Pictured Rocks National Lakeshore",
    "state": "MI",
    "country": "US",
    "lat": 46.558,
    "lng": -86.362
  },
  {
    "id": 95326,
    "name": "Sleeping Bear Dunes National Lakeshore",
    "state": "MI",
    "country": "US",
    "lat": 44.865,
    "lng": -86.053
  },
  {
    "id": 119523,
    "name": "Okefenokee NWR",
    "state": "GA",
    "country": "US",
    "lat": 30.799,
    "lng": -82.305
  },
  {
    "id": 119468,
    "name": "Merritt Island NWR",
    "state": "FL",
    "country": "US",
    "lat": 28.633,
    "lng": -80.703
  },
  {
    "id": 119263,
    "name": "Chincoteague NWR",
    "state": "VA",
    "country": "US",
    "lat": 37.9,
    "lng": -75.37
  },
  {
    "id": 119204,
    "name": "Bear River Migratory Bird Refuge",
    "state": "UT",
    "country": "US",
    "lat": 41.47,
    "lng": -112.265
  },
  {
    "id": 63600,
    "name": "Bosque del Apache NWR",
    "state": "NM",
    "country": "US",
    "lat": 33.758,
    "lng": -106.828
  },
  {
    "id": 77932,
    "name": "Banff National Park",
    "state": "AB",
    "country": "CA",
    "lat": 51.543,
    "lng": -116.124
  },
  {
    "id": 162742,
    "name": "Jasper National Park",
    "state": "AB",
    "country": "CA",
    "lat": 52.851,
    "lng": -117.984
  },
  {
    "id": 90295,
    "name": "Algonquin Provincial Park",
    "state": "ON",
    "country": "CA",
    "lat": 45.784,
    "lng": -78.388
  },
  {
    "id": 112797,
    "name": "Yoho National Park",
    "state": "BC",
    "country": "CA",
    "lat": 51.384,
    "lng": -116.526
  },
  {
    "id": 112799,
    "name": "Kootenay National Park",
    "state": "BC",
    "country": "CA",
    "lat": 50.962,
    "lng": -116.041
  },
  {
    "id": 55198,
    "name": "Waterton Lakes NP",
    "state": "AB",
    "country": "CA",
    "lat": 49.081,
    "lng": -113.933
  },
  {
    "id": 68850,
    "name": "Pacific Rim NP Reserve",
    "state": "BC",
    "country": "CA",
    "lat": 48.831,
    "lng": -125.147
  },
  {
    "name": "PN Cumbres de Monterrey",
    "id": 55243,
    "lat": 25.356,
    "lng": -100.34,
    "state": "MX",
    "country": "MX"
  },
  {
    "name": "RB El Vizcaino",
    "id": 55258,
    "lat": 27.191,
    "lng": -113.749,
    "state": "MX",
    "country": "MX"
  },
  {
    "name": "RB Mariposa Monarca",
    "id": 73998,
    "lat": 19.652,
    "lng": -100.243,
    "state": "MX",
    "country": "MX"
  },
  {
    "name": "PN Sierra de San Pedro Martir",
    "id": 55334,
    "lat": 30.934,
    "lng": -115.441,
    "state": "MX",
    "country": "MX"
  },
  {
    "name": "Area de Proteccion Canon de Santa Elena",
    "id": 55218,
    "lat": 29.107,
    "lng": -103.802,
    "state": "MX",
    "country": "MX"
  },
  {
    "name": "RB Montes Azules",
    "id": 55300,
    "lat": 16.52,
    "lng": -91.128,
    "state": "MX",
    "country": "MX"
  },
  {
    "id": 95201,
    "name": "First State National Historical Park",
    "state": "US",
    "country": "US",
    "lat": 39.830836043,
    "lng": -75.5635482778
  },
  {
    "id": 3862,
    "name": "Malibu Creek State Park - Bennet",
    "state": "CA",
    "country": "US",
    "lat": 34.0942993164,
    "lng": -118.7710037231
  },
  {
    "id": 3864,
    "name": "Malibu Creek State Park - Randa House",
    "state": "CA",
    "country": "US",
    "lat": 34.0979995728,
    "lng": -118.7689971924
  },
  {
    "id": 3866,
    "name": "Malibu Creek State Park - Rez",
    "state": "CA",
    "country": "US",
    "lat": 34.0970993042,
    "lng": -118.7730026245
  },
  {
    "id": 4087,
    "name": "Watts Towers of Simon Rodia State Historic Park",
    "state": "CA",
    "country": "US",
    "lat": 33.9388008118,
    "lng": -118.2409973145
  },
  {
    "id": 81860,
    "name": "Pilot Mountain State Park",
    "state": "NC",
    "country": "US",
    "lat": 36.345501,
    "lng": -80.47847
  },
  {
    "id": 56081,
    "name": "Brainard Homestead State Park Scenic Reserve",
    "state": "CT",
    "country": "US",
    "lat": 41.4670710542,
    "lng": -72.4622902595
  },
  {
    "id": 56107,
    "name": "Dart Island State Park Scenic Reserve",
    "state": "CT",
    "country": "US",
    "lat": 41.5525699497,
    "lng": -72.5626861623
  },
  {
    "id": 56030,
    "name": "Above All State Park Scenic Reserve",
    "state": "CT",
    "country": "US",
    "lat": 41.7265101781,
    "lng": -73.3540649538
  },
  {
    "id": 56157,
    "name": "Haddam Island State Park Scenic Reserve",
    "state": "CT",
    "country": "US",
    "lat": 41.4919480203,
    "lng": -72.5186529314
  },
  {
    "id": 56183,
    "name": "Humaston Brook State Park Scenic Reserve",
    "state": "CT",
    "country": "US",
    "lat": 41.7024778192,
    "lng": -73.1060908845
  },
  {
    "id": 56187,
    "name": "Ivy Mountain State Park",
    "state": "CT",
    "country": "US",
    "lat": 41.8725235328,
    "lng": -73.2253327549
  },
  {
    "id": 56428,
    "name": "Ross Pond State Park",
    "state": "CT",
    "country": "US",
    "lat": 41.7734874458,
    "lng": -71.8690264605
  },
  {
    "id": 56370,
    "name": "Sunset Rock State Park Scenic Reserve",
    "state": "CT",
    "country": "US",
    "lat": 41.6623442171,
    "lng": -72.8464361403
  },
  {
    "id": 56423,
    "name": "Hop River State Park",
    "state": "CT",
    "country": "US",
    "lat": 41.7790452077,
    "lng": -72.433360515
  },
  {
    "id": 56227,
    "name": "Minnie Island State Park Scenic Reserve",
    "state": "CT",
    "country": "US",
    "lat": 41.5058718822,
    "lng": -72.221750588
  },
  {
    "id": 66616,
    "name": "Dead Horse Point State Park",
    "state": "UT",
    "country": "US",
    "lat": 38.510319,
    "lng": -109.729462
  },
  {
    "id": 143125,
    "name": "Neso Lake Provincial Park",
    "state": "MB",
    "country": "CA",
    "lat": 54.6571768219,
    "lng": -101.5478411936
  },
  {
    "id": 143126,
    "name": "Twin Lakes Provincial Park",
    "state": "MB",
    "country": "CA",
    "lat": 54.6571470662,
    "lng": -101.4778719317
  },
  {
    "id": 132869,
    "name": "Allison Harbour Marine Provincial Park",
    "state": "BC",
    "country": "CA",
    "lat": 51.0515732322,
    "lng": -127.5052252288
  },
  {
    "id": 132446,
    "name": "Lower Nimpkish Provincial Park",
    "state": "BC",
    "country": "CA",
    "lat": 50.536747922,
    "lng": -127.0093832616
  },
  {
    "id": 132453,
    "name": "Nimpkish Lake Provincial Park",
    "state": "BC",
    "country": "CA",
    "lat": 50.3377711874,
    "lng": -127.0046675642
  },
  {
    "id": 135954,
    "name": "Santa Gertrudis - Boca del Infierno Marine Provincial Park",
    "state": "BC",
    "country": "CA",
    "lat": 49.6108882586,
    "lng": -126.6279343013
  },
  {
    "id": 135957,
    "name": "Scatter River Old Growth Provincial Park",
    "state": "BC",
    "country": "CA",
    "lat": 59.6273130959,
    "lng": -124.6786242781
  },
  {
    "id": 135354,
    "name": "Mudzenchoot Provincial Park",
    "state": "BC",
    "country": "CA",
    "lat": 55.0361985683,
    "lng": -124.4417535804
  },
  {
    "id": 135355,
    "name": "Muscovite Lakes Provincial Park",
    "state": "BC",
    "country": "CA",
    "lat": 55.9743937536,
    "lng": -124.139952402
  },
  {
    "id": 135360,
    "name": "Netalzul Meadows Provincial Park",
    "state": "BC",
    "country": "CA",
    "lat": 55.2365884027,
    "lng": -127.0329810806
  },
  {
    "id": 135364,
    "name": "Nilkitkwa Lake Provincial Park",
    "state": "BC",
    "country": "CA",
    "lat": 55.3898148493,
    "lng": -126.6569530822
  },
  {
    "id": 135369,
    "name": "North Thompson Islands Provincial Park",
    "state": "BC",
    "country": "CA",
    "lat": 51.3710264595,
    "lng": -120.1794738225
  },
  {
    "id": 135370,
    "name": "North Thompson Oxbows East Provincial Park",
    "state": "BC",
    "country": "CA",
    "lat": 52.4813352588,
    "lng": -119.2434217044
  },
  {
    "id": 135371,
    "name": "North Thompson Oxbows Jensen Island Provincial Park",
    "state": "BC",
    "country": "CA",
    "lat": 50.8687474409,
    "lng": -120.2835273404
  },
  {
    "id": 132473,
    "name": "Iskut River Hot Springs Provincial Park",
    "state": "BC",
    "country": "CA",
    "lat": 57.0837047669,
    "lng": -130.3605913024
  },
  {
    "id": 134150,
    "name": "Cedar Point Provincial Park",
    "state": "BC",
    "country": "CA",
    "lat": 52.5769454242,
    "lng": -121.5376973576
  },
  {
    "id": 134018,
    "name": "Shuswap River Islands Provincial Park",
    "state": "BC",
    "country": "CA",
    "lat": 50.5531957801,
    "lng": -118.8922568643
  },
  {
    "id": 134058,
    "name": "Taweel Provincial Park",
    "state": "BC",
    "country": "CA",
    "lat": 51.6390683326,
    "lng": -120.3676426535
  },
  {
    "id": 134061,
    "name": "Topley Landing Provincial Park",
    "state": "BC",
    "country": "CA",
    "lat": 54.8109856961,
    "lng": -126.1434380035
  },
  {
    "id": 134062,
    "name": "Trembleur Lake Provincial Park",
    "state": "BC",
    "country": "CA",
    "lat": 54.8277143702,
    "lng": -125.2324629417
  },
  {
    "id": 5534,
    "name": "Cleveland National Forest, Exp 1",
    "state": "CA",
    "country": "US",
    "lat": 33.8237991333,
    "lng": -117.6669998169
  },
  {
    "id": 5463,
    "name": "Los Padres National Forest (MT)",
    "state": "CA",
    "country": "US",
    "lat": 36.2033996582,
    "lng": -121.5759963989
  },
  {
    "id": 175738,
    "name": "Roosevelt National Forest (Panhandle Creek and Deadman area) ",
    "state": "CO",
    "country": "US",
    "lat": 40.8416500934,
    "lng": -105.6922009413
  },
  {
    "id": 123768,
    "name": "Petrified Forest National Wilderness Area",
    "state": "US",
    "country": "US",
    "lat": 35.0740456132,
    "lng": -109.8111572849
  },
  {
    "id": 157298,
    "name": "Mirror Lake, Wasatch National Forest",
    "state": "UT",
    "country": "US",
    "lat": 40.703474746,
    "lng": -110.8874566728
  },
  {
    "id": 118227,
    "name": "Deadman Canyon, Big Burro Mountains, Gila National Forest",
    "state": "NM",
    "country": "US",
    "lat": 32.6105666146,
    "lng": -108.4145689602
  },
  {
    "id": 215314,
    "name": "Yampa Ranger District, Routt National Forest, CO, US",
    "state": "CO",
    "country": "US",
    "lat": 40.1553741067,
    "lng": -106.9335974602
  },
  {
    "id": 158323,
    "name": "Samuel R. McKelvie National Forest",
    "state": "NE",
    "country": "US",
    "lat": 42.7118426049,
    "lng": -101.0414052335
  },
  {
    "id": 208219,
    "name": "Daniel Boone National Forest Climbing Areas With Official Trails",
    "state": "KY",
    "country": "US",
    "lat": 37.8354246177,
    "lng": -83.6470852748
  },
  {
    "id": 3737,
    "name": "Carmel River Lagoon & Wetlands Natural Preserve",
    "state": "CA",
    "country": "US",
    "lat": 36.5304985046,
    "lng": -121.9250030518
  },
  {
    "id": 3817,
    "name": "Bumpy Camp Nature Preserve",
    "state": "CA",
    "country": "US",
    "lat": 38.4048995972,
    "lng": -122.4530029297
  },
  {
    "id": 56315,
    "name": "Reeves Lot Natural Area Preserve",
    "state": "CT",
    "country": "US",
    "lat": 41.6238014396,
    "lng": -72.5716768415
  },
  {
    "id": 66885,
    "name": "Smithneck Creek Nature Preserve",
    "state": "CA",
    "country": "US",
    "lat": 39.6791836481,
    "lng": -120.2537512779
  },
  {
    "id": 137832,
    "name": "Cypress Creek Nature Preserve",
    "state": "TX",
    "country": "US",
    "lat": 29.9981329338,
    "lng": -98.0936829318
  },
  {
    "id": 126163,
    "name": "NC Creek Side Nature Preserve",
    "state": "NC",
    "country": "US",
    "lat": 35.3433476082,
    "lng": -80.6155503845
  },
  {
    "id": 123797,
    "name": "Massassauga Prairie Nature Preserve",
    "state": "US",
    "country": "US",
    "lat": 40.7602533721,
    "lng": -90.5686667736
  },
  {
    "id": 95348,
    "name": "Yukon-Charley Rivers National Preserve",
    "state": "US",
    "country": "US",
    "lat": 65.0897826685,
    "lng": -142.7984363038
  },
  {
    "id": 95288,
    "name": "Noatak National Preserve",
    "state": "US",
    "country": "US",
    "lat": 68.0042120491,
    "lng": -159.8326831495
  },
  {
    "id": 95100,
    "name": "Bering Land Bridge National Preserve",
    "state": "US",
    "country": "US",
    "lat": 65.9546125805,
    "lng": -164.4038137346
  },
  {
    "id": 95234,
    "name": "Little River Canyon National Preserve",
    "state": "US",
    "country": "US",
    "lat": 34.4146762277,
    "lng": -85.6172763475
  },
  {
    "id": 54005,
    "name": "Jean Lafitte National Historical Park and Preserve",
    "state": "US",
    "country": "US",
    "lat": 29.817211404,
    "lng": -90.1399622266
  },
  {
    "id": 6073,
    "name": "Stone Lakes National Wildife Preserve",
    "state": "CA",
    "country": "US",
    "lat": 38.4480018616,
    "lng": -121.46900177
  },
  {
    "id": 95130,
    "name": "Canaveral National Seashore",
    "state": "US",
    "country": "US",
    "lat": 28.7862735358,
    "lng": -80.754145444
  },
  {
    "id": 95142,
    "name": "Curecanti National Recreation Area",
    "state": "US",
    "country": "US",
    "lat": 38.4658289544,
    "lng": -107.3303634394
  },
  {
    "id": 95202,
    "name": "Gauley River National Recreation Area",
    "state": "US",
    "country": "US",
    "lat": 38.2061421693,
    "lng": -81.0042102677
  },
  {
    "id": 95272,
    "name": "Lake Roosevelt National Recreation Area",
    "state": "US",
    "country": "US",
    "lat": 48.1771841431,
    "lng": -118.3294507547
  },
  {
    "id": 95271,
    "name": "Lake Meredith National Recreation Area",
    "state": "US",
    "country": "US",
    "lat": 35.6191720563,
    "lng": -101.6820554302
  },
  {
    "id": 95266,
    "name": "Lake Chelan National Recreation Area",
    "state": "US",
    "country": "US",
    "lat": 48.3538115092,
    "lng": -120.6837308918
  },
  {
    "id": 95102,
    "name": "Bighorn Canyon National Recreation Area",
    "state": "US",
    "country": "US",
    "lat": 45.0339407204,
    "lng": -108.2049263874
  },
  {
    "id": 95199,
    "name": "Glen Canyon National Recreation Area",
    "state": "US",
    "country": "US",
    "lat": 37.5155635115,
    "lng": -110.7736294846
  },
  {
    "id": 95140,
    "name": "Chickasaw National Recreation Area",
    "state": "US",
    "country": "US",
    "lat": 34.4604913449,
    "lng": -97.0071585336
  },
  {
    "id": 95137,
    "name": "Chattahoochee River National Recreation Area",
    "state": "US",
    "country": "US",
    "lat": 33.9965354559,
    "lng": -84.2903504689
  },
  {
    "id": 95116,
    "name": "Boston Harbor Islands National Recreation Area",
    "state": "US",
    "country": "US",
    "lat": 42.309171262,
    "lng": -70.9399616402
  },
  {
    "id": 95153,
    "name": "Mississippi National River and Recreation Area",
    "state": "US",
    "country": "US",
    "lat": 44.873941451,
    "lng": -93.0464523057
  },
  {
    "id": 95109,
    "name": "Big South Fork National River and Recreation Area",
    "state": "US",
    "country": "US",
    "lat": 36.5346688487,
    "lng": -84.6651192133
  },
  {
    "id": 9912,
    "name": "Golden Gate National Recreation Area",
    "state": "US",
    "country": "US",
    "lat": 37.7785515673,
    "lng": -122.5507087159
  },
  {
    "id": 95085,
    "name": "Amistad National Recreation Area",
    "state": "US",
    "country": "US",
    "lat": 29.5356595804,
    "lng": -101.0763133914
  },
  {
    "id": 72641,
    "name": "Delaware Water Gap National Recreation Area",
    "state": "NJ",
    "country": "US",
    "lat": 41.1264863442,
    "lng": -74.9482639545
  },
  {
    "id": 3730,
    "name": "Santa Monica Mountains National Recreation Area",
    "state": "US",
    "country": "US",
    "lat": 34.0976714409,
    "lng": -118.771017313
  },
  {
    "id": 95269,
    "name": "Lake Mead National Recreation Area",
    "state": "Lake Mead National Recreation Area",
    "country": "US",
    "lat": 35.9436983441,
    "lng": -114.4805914667
  },
  {
    "id": 95282,
    "name": "Ross Lake National Recreation Area",
    "state": "US",
    "country": "US",
    "lat": 48.7814512633,
    "lng": -121.1040321012
  },
  {
    "id": 69314,
    "name": "Gateway National Recreation Area",
    "state": "NJ",
    "country": "US",
    "lat": 40.5717206258,
    "lng": -73.9096912774
  },
  {
    "id": 4518,
    "name": "Whiskeytown-Shasta-Trinity National Recreation Area",
    "state": "US",
    "country": "US",
    "lat": 40.6135812591,
    "lng": -122.6022604132
  },
  {
    "id": 13430,
    "name": "Manassas Park",
    "state": "US",
    "country": "US",
    "lat": 38.7717467396,
    "lng": -77.4447504773
  },
  {
    "id": 96884,
    "name": "Parke",
    "state": "US",
    "country": "US",
    "lat": 39.7736249614,
    "lng": -87.2063597862
  },
  {
    "id": 3827,
    "name": "Los Robles County Park",
    "state": "CA",
    "country": "US",
    "lat": 34.009601593,
    "lng": -117.986000061
  },
  {
    "id": 5301,
    "name": "Isla Vista County Park",
    "state": "CA",
    "country": "US",
    "lat": 34.4094009399,
    "lng": -119.8600006104
  },
  {
    "id": 5117,
    "name": "Di Giorgio County Park",
    "state": "CA",
    "country": "US",
    "lat": 35.2036018372,
    "lng": -118.8320007324
  },
  {
    "id": 5111,
    "name": "Casa Loma County Park",
    "state": "CA",
    "country": "US",
    "lat": 35.3358001709,
    "lng": -118.9960021973
  },
  {
    "id": 4836,
    "name": "Thirty Eighth Street County Park",
    "state": "AZ",
    "country": "US",
    "lat": 33.4345016479,
    "lng": -114.6279983521
  },
  {
    "id": 5380,
    "name": "O'Bannion County Park",
    "state": "CA",
    "country": "US",
    "lat": 36.9929008484,
    "lng": -120.625
  },
  {
    "id": 4409,
    "name": "Palo Verde County Park",
    "state": "CA",
    "country": "US",
    "lat": 33.3997993469,
    "lng": -114.7249984741
  },
  {
    "id": 6609,
    "name": "Cottonwood One County Park",
    "state": "CA",
    "country": "US",
    "lat": 32.7543983459,
    "lng": -116.9130020142
  },
  {
    "id": 6630,
    "name": "Kelseyville County Park",
    "state": "CA",
    "country": "US",
    "lat": 38.9780006409,
    "lng": -122.8330001831
  },
  {
    "id": 6632,
    "name": "Upper Lake County Park",
    "state": "CA",
    "country": "US",
    "lat": 39.1605987549,
    "lng": -122.90599823
  },
  {
    "id": 131721,
    "name": "Fish Lake County Park",
    "state": "WI",
    "country": "US",
    "lat": 43.2862379427,
    "lng": -89.6611260076
  },
  {
    "id": 171156,
    "name": "Plum Creek Dam County Park",
    "state": "IA",
    "country": "US",
    "lat": 43.1096577255,
    "lng": -94.2077776541
  },
  {
    "id": 161381,
    "name": "Van Cleve County Park",
    "state": "IA",
    "country": "US",
    "lat": 41.9348611656,
    "lng": -93.0204787611
  },
  {
    "id": 4906,
    "name": "Valley-Wide Regional Park",
    "state": "CA",
    "country": "US",
    "lat": 33.7747993469,
    "lng": -116.9759979248
  },
  {
    "id": 5424,
    "name": "Mossdale Crossing Regional Park",
    "state": "CA",
    "country": "US",
    "lat": 37.7892990112,
    "lng": -121.3050003052
  },
  {
    "id": 5655,
    "name": "Tuolumne River Regional Park",
    "state": "CA",
    "country": "US",
    "lat": 37.6242980957,
    "lng": -120.9680023193
  },
  {
    "id": 6419,
    "name": "Desert Regional Park",
    "state": "CA",
    "country": "US",
    "lat": 33.7588005066,
    "lng": -116.233001709
  },
  {
    "id": 4084,
    "name": "Jesse Owens Community Regional Park",
    "state": "CA",
    "country": "US",
    "lat": 33.9472999573,
    "lng": -118.3109970093
  },
  {
    "id": 164284,
    "name": "The Great Trail: Melville to York Lake Regional Park Connector",
    "state": "SK",
    "country": "CA",
    "lat": 51.0121199419,
    "lng": -102.5947505318
  },
  {
    "id": 182242,
    "name": "Bunker Hills Regional Park - McKay Lake",
    "state": "MN",
    "country": "US",
    "lat": 45.1987298405,
    "lng": -93.2897566991
  },
  {
    "id": 210215,
    "name": "South Langley Regional Park - east block",
    "state": "BC",
    "country": "CA",
    "lat": 49.0113086688,
    "lng": -122.5845012976
  },
  {
    "id": 4152,
    "name": "Olinda Regional Park",
    "state": "CA",
    "country": "US",
    "lat": 33.9355010986,
    "lng": -117.8229980469
  },
  {
    "id": 160458,
    "name": "White's Ford Regional Park",
    "state": "VA",
    "country": "US",
    "lat": 39.1932101363,
    "lng": -77.4858944111
  },
  {
    "id": 196907,
    "name": "Richard O'Connor Memorial Park, Otonabee Region Conservation Authority",
    "state": "ON",
    "country": "CA",
    "lat": 44.2413093141,
    "lng": -78.3392052295
  },
  {
    "id": 216537,
    "name": "Piscataway Crossing Regional Park",
    "state": "VA",
    "country": "US",
    "lat": 39.1932181696,
    "lng": -77.4858946239
  },
  {
    "id": 4386,
    "name": "Escondido Creek Regional Park",
    "state": "CA",
    "country": "US",
    "lat": 33.0783004761,
    "lng": -117.1650009155
  },
  {
    "id": 3874,
    "name": "Swartz County Regional Park",
    "state": "CA",
    "country": "US",
    "lat": 32.8092002869,
    "lng": -116.6449966431
  },
  {
    "id": 202583,
    "name": "Fraser Islands Regional Park Reserve",
    "state": "BC",
    "country": "CA",
    "lat": 49.2130481238,
    "lng": -122.801498759
  },
  {
    "id": 149964,
    "name": "Iona Beach Regional Park - east side",
    "state": "BC",
    "country": "CA",
    "lat": 49.2149606826,
    "lng": -123.1900649101
  },
  {
    "id": 128502,
    "name": "Wedekind Regional Park",
    "state": "US",
    "country": "US",
    "lat": 39.5705186985,
    "lng": -119.7364823074
  },
  {
    "id": 146264,
    "name": "Glen Valley Regional Park",
    "state": "BC",
    "country": "CA",
    "lat": 49.1665059066,
    "lng": -122.478677692
  },
  {
    "id": 156399,
    "name": "Black River State Forest",
    "state": "WI",
    "country": "US",
    "lat": 44.2898521136,
    "lng": -90.6556176026
  },
  {
    "id": 6093,
    "name": "Ellen Pickett State Forest",
    "state": "CA",
    "country": "US",
    "lat": 40.6473007202,
    "lng": -122.8010025024
  },
  {
    "id": 3245,
    "name": "United States Forest Service",
    "state": "CA",
    "country": "US",
    "lat": 38.0621986389,
    "lng": -120.2310028076
  },
  {
    "id": 115855,
    "name": "Two Lakes Pine-Oak Forest State Natural Area",
    "state": "WI",
    "country": "US",
    "lat": 45.7839148982,
    "lng": -89.6240647405
  },
  {
    "id": 115868,
    "name": "Upper Nemadji Floodplain Forest State Natural Area",
    "state": "US",
    "country": "US",
    "lat": 46.5418861729,
    "lng": -92.2538054502
  },
  {
    "id": 113905,
    "name": "Erickson Creek Forest & Wetlands State Natural Area",
    "state": "US",
    "country": "US",
    "lat": 46.4334921348,
    "lng": -92.0252021977
  },
  {
    "id": 113923,
    "name": "Flambeau River Hardwood Forest State Natural Area",
    "state": "US",
    "country": "US",
    "lat": 45.7133140813,
    "lng": -90.7791123208
  },
  {
    "id": 127953,
    "name": "Young Forest Habitat Wyantenock State Forest",
    "state": "US",
    "country": "US",
    "lat": 41.7236939291,
    "lng": -73.3085139918
  },
  {
    "id": 115926,
    "name": "Whitman Bottoms Floodplain Forest State Natural Area",
    "state": "US",
    "country": "US",
    "lat": 44.1657113116,
    "lng": -91.7988790445
  },
  {
    "id": 115946,
    "name": "Yellow River Floodplain Forest State Natural Area",
    "state": "US",
    "country": "US",
    "lat": 44.3107193077,
    "lng": -90.1192419521
  },
  {
    "id": 115176,
    "name": "Hawkins Hemlock-Hardwood Forest State Natural Area",
    "state": "US",
    "country": "US",
    "lat": 45.4195326061,
    "lng": -90.6811818133
  },
  {
    "id": 112128,
    "name": "LTC Old-Growth Forest State Natural Area",
    "state": "US",
    "country": "US",
    "lat": 43.9268226432,
    "lng": -87.7494792026
  },
  {
    "id": 114361,
    "name": "Baraboo River Floodplain Forest State Natural Area",
    "state": "WI",
    "country": "US",
    "lat": 43.504067207,
    "lng": -89.486953171
  },
  {
    "id": 115475,
    "name": "Nemadji River Floodplain Forest State Natural Area",
    "state": "US",
    "country": "US",
    "lat": 46.6131709676,
    "lng": -92.0993056708
  },
  {
    "id": 93220,
    "name": "Mukwa Bottomland Forest State Natural Area",
    "state": "US",
    "country": "US",
    "lat": 44.385281271,
    "lng": -88.7990879117
  },
  {
    "id": 168696,
    "name": "Beartown State Forest",
    "state": "NY",
    "country": "US",
    "lat": 43.9781602595,
    "lng": -75.4826343235
  },
  {
    "id": 168811,
    "name": "Cobb Brook State Forest",
    "state": "NY",
    "country": "US",
    "lat": 43.3462706519,
    "lng": -75.6729350851
  },
  {
    "id": 168828,
    "name": "Brookhaven Pine Barrens State Forest",
    "state": "NY",
    "country": "US",
    "lat": 40.9011402018,
    "lng": -72.8785695829
  },
  {
    "id": 120119,
    "name": "Cedar Mountain Wilderness Study Area",
    "state": "NM",
    "country": "US",
    "lat": 31.9680993864,
    "lng": -108.1492431907
  },
  {
    "id": 135982,
    "name": "Purcell Wilderness Conservancy Park Corridor Protected Area",
    "state": "BC",
    "country": "CA",
    "lat": 50.1399613633,
    "lng": -116.2409106123
  },
  {
    "id": 135490,
    "name": "Ruiss Noir Wilderness Area",
    "state": "NS",
    "country": "CA",
    "lat": 46.4745028405,
    "lng": -61.0149961126
  },
  {
    "id": 135491,
    "name": "Scrag Lake Wilderness Area",
    "state": "NS",
    "country": "CA",
    "lat": 44.5872281223,
    "lng": -64.9144511499
  },
  {
    "id": 135494,
    "name": "Ship Harbour Long Lake Wilderness Area",
    "state": "NS",
    "country": "CA",
    "lat": 44.8932275685,
    "lng": -62.9934543088
  },
  {
    "id": 135502,
    "name": "The Big Bog Wilderness Area",
    "state": "NS",
    "country": "CA",
    "lat": 45.1828357274,
    "lng": -62.0982139115
  },
  {
    "id": 135505,
    "name": "Toadfish Lakes Wilderness Area",
    "state": "NS",
    "country": "CA",
    "lat": 45.0575461173,
    "lng": -62.3734085056
  },
  {
    "id": 135506,
    "name": "Trout Brook Wilderness Area",
    "state": "NS",
    "country": "CA",
    "lat": 46.0845327187,
    "lng": -61.0660408009
  },
  {
    "id": 135509,
    "name": "Twelve Mile Stream Wilderness Area",
    "state": "NS",
    "country": "CA",
    "lat": 45.0862141774,
    "lng": -62.5875776853
  },
  {
    "id": 135397,
    "name": "Alder Ground Wilderness Area",
    "state": "NS",
    "country": "CA",
    "lat": 45.1247339619,
    "lng": -62.2869911387
  },
  {
    "id": 135398,
    "name": "Alder Ground Wilderness Area 2",
    "state": "NS",
    "country": "CA",
    "lat": 45.1435939229,
    "lng": -62.301166905
  },
  {
    "id": 135407,
    "name": "Clattenburgh Brook Wilderness Area",
    "state": "NS",
    "country": "CA",
    "lat": 44.8675660474,
    "lng": -63.4103773444
  },
  {
    "id": 135439,
    "name": "Lake Rossignol Wilderness Area",
    "state": "NS",
    "country": "CA",
    "lat": 44.2384481023,
    "lng": -65.0561834265
  },
  {
    "id": 135441,
    "name": "Liscomb River Wilderness Area",
    "state": "NS",
    "country": "CA",
    "lat": 45.0782450056,
    "lng": -62.1109896243
  },
  {
    "id": 135444,
    "name": "McGill Lake Wilderness Area",
    "state": "NS",
    "country": "CA",
    "lat": 44.694906801,
    "lng": -65.035465182
  },
  {
    "id": 135451,
    "name": "North Mountain Wilderness Area",
    "state": "NS",
    "country": "CA",
    "lat": 45.7920399148,
    "lng": -61.1692241217
  },
  {
    "id": 135456,
    "name": "Ogden Round Lake Wilderness Area",
    "state": "NS",
    "country": "CA",
    "lat": 45.4042478995,
    "lng": -61.6461029554
  },
  {
    "id": 160745,
    "name": "Bridge Coulee Wilderness Study Area",
    "state": "MT",
    "country": "US",
    "lat": 47.2307573297,
    "lng": -107.9129408918
  },
  {
    "id": 171584,
    "name": "Black Ridge Canyon West Wilderness Study Area",
    "state": "UT",
    "country": "US",
    "lat": 39.1028096412,
    "lng": -109.0770348778
  }
]